City_ID,City,Lat,Lng,Max Temp,Humidity,Cloudiness,Wind Speed,Country,Date
0,Glendive,47.1053,-104.7125,32.63,75,100,17.25,US,2022-03-08 05:40:26
1,Hermanus,-34.4187,19.2345,68.81,76,97,13.62,ZA,2022-03-08 05:40:27
2,Thompson,55.7435,-97.8558,14.16,85,75,0.0,CA,2022-03-08 05:40:27
3,Grindavik,63.8424,-22.4338,32.47,100,100,27.63,IS,2022-03-08 05:40:28
4,Saint-Joseph,-21.3667,55.6167,83.82,79,99,10.96,RE,2022-03-08 05:40:28
5,Talara,-4.5772,-81.2719,76.77,80,55,1.9,PE,2022-03-08 05:40:29
6,Hamilton,39.1834,-84.5333,37.35,74,100,9.22,US,2022-03-08 05:39:52
7,Kampene,-3.6,26.6667,70.29,93,49,1.48,CD,2022-03-08 05:40:33
8,Sabha,27.0377,14.4283,61.97,44,1,21.14,LY,2022-03-08 05:40:37
9,Suez,29.9737,32.5263,61.38,58,96,6.85,EG,2022-03-08 05:40:37
10,Rikitea,-23.1203,-134.9692,79.47,74,3,13.8,PF,2022-03-08 05:40:38
11,Bredasdorp,-34.5322,20.0403,69.12,68,100,6.91,ZA,2022-03-08 05:40:38
12,Punta Arenas,-53.15,-70.9167,50.11,87,0,17.27,CL,2022-03-08 05:40:39
13,Carnarvon,-24.8667,113.6333,98.67,30,4,16.11,AU,2022-03-08 05:40:39
14,Narsaq,60.9167,-46.05,8.82,71,12,8.63,GL,2022-03-08 05:40:40
15,Upernavik,72.7868,-56.1549,3.58,95,100,4.41,GL,2022-03-08 05:40:40
16,Presidencia Roque Saenz Pena,-26.7852,-60.4388,73.26,89,98,3.71,AR,2022-03-08 05:40:41
17,Kabanjahe,3.1001,98.4908,70.56,85,100,2.53,ID,2022-03-08 05:40:42
18,Nikolskoye,59.7035,30.7861,7.92,94,95,2.04,RU,2022-03-08 05:40:42
19,Ushuaia,-54.8,-68.3,49.66,62,40,10.36,AR,2022-03-08 05:40:42
20,Kapaa,22.0752,-159.319,73.72,75,0,12.66,US,2022-03-08 05:40:44
21,North Bend,43.4065,-124.2243,46.94,94,40,6.91,US,2022-03-08 05:40:44
22,Chateauneuf-Les-Martigues,43.3833,5.1667,38.8,65,40,3.44,FR,2022-03-08 05:40:45
23,Atuona,-9.8,-139.0333,78.71,81,19,15.7,PF,2022-03-08 05:40:45
24,Mataura,-46.1927,168.8643,72.14,52,69,5.23,NZ,2022-03-08 05:40:46
25,Okhotsk,59.3833,143.3,12.97,81,12,9.64,RU,2022-03-08 05:40:46
26,Hirara,24.8,125.2833,68.27,60,75,20.71,JP,2022-03-08 05:40:47
27,New Norfolk,-42.7826,147.0587,62.91,35,66,3.0,AU,2022-03-08 05:40:47
28,Tasiilaq,65.6145,-37.6368,17.76,63,14,8.9,GL,2022-03-08 05:40:48
29,Mount Gambier,-37.8333,140.7667,67.91,49,75,25.32,AU,2022-03-08 05:40:22
30,Kazerun,29.6195,51.6541,68.2,43,64,7.87,IR,2022-03-08 05:40:49
31,Fare,-16.7,-151.0167,81.41,74,69,14.58,PF,2022-03-08 05:40:49
32,Harper,4.375,-7.7169,79.3,88,39,4.25,LR,2022-03-08 05:40:50
33,East London,-33.0153,27.9116,72.54,94,40,9.22,ZA,2022-03-08 05:39:50
34,Gornopravdinsk,60.05,69.9,-7.31,89,100,11.32,RU,2022-03-08 05:40:51
35,Hithadhoo,-0.6,73.0833,83.12,68,55,10.94,MV,2022-03-08 05:40:51
36,Port Alfred,-33.5906,26.891,73.22,83,100,8.43,ZA,2022-03-08 05:40:52
37,Sao Luis Do Quitunde,-9.3183,-35.5611,74.64,83,22,1.86,BR,2022-03-08 05:40:52
38,Saiki,32.95,131.9,51.8,44,0,14.03,JP,2022-03-08 05:40:54
39,Mahebourg,-20.4081,57.7,82.26,89,75,3.44,MU,2022-03-08 05:40:54
40,Qaanaaq,77.484,-69.3632,-3.01,73,94,2.95,GL,2022-03-08 05:40:55
41,Puerto Ayora,-0.7393,-90.3518,74.55,99,87,3.78,EC,2022-03-08 05:40:55
42,Iqaluit,63.7506,-68.5145,-4.27,65,100,5.75,CA,2022-03-08 05:41:56
43,Chumphon,10.3333,98.8333,75.31,69,100,7.52,TH,2022-03-08 05:41:56
44,Khani,41.9563,42.9566,36.97,56,100,2.33,GE,2022-03-08 05:41:57
45,Prescott,34.54,-112.4685,32.27,60,0,6.91,US,2022-03-08 05:41:57
46,Tyrma,50.0833,132.1667,28.54,77,100,2.13,RU,2022-03-08 05:41:58
47,Emet,39.343,29.2585,35.33,80,76,4.38,TR,2022-03-08 05:41:58
48,Vaini,-21.2,-175.2,77.16,100,100,1.14,TO,2022-03-08 05:41:59
49,Burnie,-41.0667,145.9167,69.93,52,56,7.25,AU,2022-03-08 05:41:59
50,Vila Velha,-20.3297,-40.2925,73.35,94,20,1.14,BR,2022-03-08 05:37:43
51,Buala,-8.145,159.5921,83.55,72,96,2.53,SB,2022-03-08 05:42:00
52,Korla,41.7597,86.1469,57.92,17,17,1.14,CN,2022-03-08 05:42:01
53,Avera,33.194,-82.5271,66.07,83,95,6.82,US,2022-03-08 05:42:01
54,Sao Joao Da Barra,-21.6403,-41.0511,75.94,88,2,8.86,BR,2022-03-08 05:42:02
55,Kohima,25.6667,94.1167,70.57,20,0,4.85,IN,2022-03-08 05:42:03
56,Bathsheba,13.2167,-59.5167,75.81,78,75,14.97,BB,2022-03-08 05:42:03
57,Upata,8.0086,-62.3989,70.2,95,100,2.84,VE,2022-03-08 05:42:04
58,Birin,26.8865,88.0718,75.04,19,0,7.31,NP,2022-03-08 05:42:04
59,Lorengau,-2.0226,147.2712,84.45,72,100,8.1,PG,2022-03-08 05:42:05
60,Dabhol,17.6,73.1667,91.04,33,1,6.4,IN,2022-03-08 05:42:05
61,Dukat,62.55,155.55,-0.27,91,100,4.0,RU,2022-03-08 05:42:06
62,The Valley,18.217,-63.0578,76.86,74,2,21.39,AI,2022-03-08 05:42:06
63,Ancud,-41.8697,-73.8203,56.43,80,91,16.96,CL,2022-03-08 05:42:07
64,Pointe Michel,15.25,-61.3833,76.55,74,9,16.84,DM,2022-03-08 05:42:08
65,Mayumba,-3.432,10.6554,79.99,88,100,5.64,GA,2022-03-08 05:42:08
66,Broken Hill,-31.95,141.4333,76.71,41,30,21.85,AU,2022-03-08 05:42:09
67,Avarua,-21.2078,-159.775,73.45,100,75,4.61,CK,2022-03-08 05:42:10
68,Provideniya,64.3833,-173.3,15.78,86,65,12.06,RU,2022-03-08 05:42:10
69,Fortuna,40.5982,-124.1573,46.18,90,0,0.0,US,2022-03-08 05:42:11
70,Karratha,-20.7377,116.8463,97.05,38,4,16.75,AU,2022-03-08 05:42:11
71,Ponta Do Sol,32.6667,-17.1,62.06,72,85,5.88,PT,2022-03-08 05:42:12
72,Albany,42.6001,-73.9662,38.23,71,80,8.99,US,2022-03-08 05:42:12
73,Erie,42.7667,-78.6664,32.05,77,97,11.01,US,2022-03-08 05:41:55
74,Longyearbyen,78.2186,15.6401,21.04,73,0,11.5,SJ,2022-03-08 05:42:13
75,Namatanai,-3.6667,152.4333,83.7,68,97,7.67,PG,2022-03-08 05:42:14
76,Capitao Poco,-1.7464,-47.0594,71.73,99,100,2.33,BR,2022-03-08 05:42:14
77,Puerto Baquerizo Moreno,-0.9,-89.6,78.13,83,67,9.1,EC,2022-03-08 05:42:15
78,Falam,22.9167,93.6833,83.32,23,10,2.57,MM,2022-03-08 05:42:15
79,Tucuman,-26.8241,-65.2226,64.4,88,100,0.0,AR,2022-03-08 05:37:47
80,Tecoanapa,16.5167,-98.75,75.49,72,64,4.18,MX,2022-03-08 05:42:16
81,Springfield,37.2153,-93.2982,30.88,81,100,5.99,US,2022-03-08 05:39:33
82,Cherskiy,68.75,161.3,-13.52,98,47,2.59,RU,2022-03-08 05:42:17
83,Port Elizabeth,-33.918,25.5701,71.1,100,75,6.91,ZA,2022-03-08 05:42:17
84,Ostrovnoy,68.0531,39.5131,3.29,96,100,20.31,RU,2022-03-08 05:42:18
85,Libertador General San Martin,-23.8064,-64.7876,71.98,99,100,0.78,AR,2022-03-08 05:42:19
86,Gulu,2.7746,32.299,79.11,55,86,8.77,UG,2022-03-08 05:42:19
87,Georgetown,5.4112,100.3354,87.75,74,20,8.05,MY,2022-03-08 05:42:20
88,Derzhavinsk,51.1,66.3167,9.19,93,93,11.95,KZ,2022-03-08 05:43:20
89,Busselton,-33.65,115.3333,89.04,39,26,6.42,AU,2022-03-08 05:43:21
90,Outjo,-20.1167,16.15,68.49,49,10,4.99,NA,2022-03-08 05:43:21
91,Talnakh,69.4865,88.3972,-20.79,91,72,3.85,RU,2022-03-08 05:43:22
92,Pati,-6.7559,111.038,82.56,79,100,1.9,ID,2022-03-08 05:43:23
93,Shahrud,36.4182,54.9763,43.45,71,97,6.58,IR,2022-03-08 05:43:23
94,Tignere,7.3667,12.65,70.81,56,92,3.15,CM,2022-03-08 05:43:24
95,Cape Town,-33.9258,18.4232,66.11,81,0,13.8,ZA,2022-03-08 05:42:36
96,Islamkot,24.6997,70.177,91.11,13,0,9.31,PK,2022-03-08 05:43:25
97,Hobart,-42.8794,147.3294,63.27,47,40,17.27,AU,2022-03-08 05:43:25
98,Pundaguitan,6.3711,126.1689,80.76,81,69,8.19,PH,2022-03-08 05:43:26
99,Saskylakh,71.9167,114.0833,-15.43,99,95,3.42,RU,2022-03-08 05:43:27
100,Haines Junction,60.7522,-137.5108,-5.03,100,19,2.48,CA,2022-03-08 05:43:27
101,Kollam,8.8833,76.6,85.87,59,39,4.29,IN,2022-03-08 05:43:28
102,Labuhan,-6.8844,112.2051,86.09,69,99,4.47,ID,2022-03-08 05:43:28
103,Muravlenko,63.7898,74.523,-12.44,93,100,19.73,RU,2022-03-08 05:43:29
104,Vardo,70.3705,31.1107,25.0,82,95,16.64,NO,2022-03-08 05:43:29
105,Kulob,37.9145,69.783,56.16,88,100,8.95,TJ,2022-03-08 05:43:30
106,Muros,42.7762,-9.0603,50.23,88,56,20.74,ES,2022-03-08 05:43:30
107,Yellowknife,62.456,-114.3525,1.92,78,20,17.27,CA,2022-03-08 05:38:43
108,Tezu,27.9167,96.1667,92.71,12,0,5.1,IN,2022-03-08 05:43:31
109,Clyde River,70.4692,-68.5914,-23.57,76,0,3.44,CA,2022-03-08 05:43:32
110,Samarai,-10.6167,150.6667,86.31,70,63,14.18,PG,2022-03-08 05:43:32
111,Hervey Bay,-25.2986,152.8535,87.91,83,2,13.76,AU,2022-03-08 05:43:33
112,Westport,41.1415,-73.3579,52.75,61,0,1.01,US,2022-03-08 05:40:46
113,Bosaso,11.2842,49.1816,76.98,65,0,24.16,SO,2022-03-08 05:43:33
114,Fershampenuaz,53.5202,59.8117,4.19,88,61,3.47,RU,2022-03-08 05:43:34
115,Cabra,37.4725,-4.4421,50.4,74,77,1.01,ES,2022-03-08 05:43:35
116,La Ronge,55.1001,-105.2842,14.25,85,100,24.16,CA,2022-03-08 05:43:35
117,Gat,31.61,34.7642,54.91,100,96,2.44,IL,2022-03-08 05:43:35
118,Pastos Bons,-6.6017,-44.0767,69.84,97,94,2.51,BR,2022-03-08 05:43:36
119,Thinadhoo,0.5333,72.9333,82.87,70,24,10.13,MV,2022-03-08 05:43:37
120,Hasaki,35.7333,140.8333,46.29,88,100,21.25,JP,2022-03-08 05:43:37
121,Mumford,5.2618,-0.759,78.84,89,75,4.52,GH,2022-03-08 05:43:38
122,Adeje,28.1227,-16.726,60.31,64,20,6.91,ES,2022-03-08 05:43:39
123,San Patricio,28.017,-97.5169,53.69,67,100,12.33,US,2022-03-08 05:43:39
124,Galle,6.0367,80.217,84.56,67,22,5.95,LK,2022-03-08 05:43:40
125,Kamenka,51.3223,42.7678,22.75,94,100,5.57,RU,2022-03-08 05:43:41
126,Barrow,71.2906,-156.7887,-3.98,77,100,12.66,US,2022-03-08 05:43:41
127,Saint George,37.1041,-113.5841,43.39,27,0,11.5,US,2022-03-08 05:43:09
128,Tuatapere,-46.1333,167.6833,70.5,59,57,2.42,NZ,2022-03-08 05:43:42
129,Dharmanagar,24.3667,92.1667,96.19,17,0,3.24,IN,2022-03-08 05:43:42
130,Chandler,33.3062,-111.8412,56.61,37,0,8.05,US,2022-03-08 05:41:21
131,Sur,22.5667,59.5289,85.73,33,0,9.04,OM,2022-03-08 05:43:43
132,Sovetskiy,61.3614,63.5842,-5.31,83,53,8.77,RU,2022-03-08 05:44:44
133,Lata,40.1629,-8.3327,49.05,89,96,2.82,PT,2022-03-08 05:44:44
134,Bengkulu,-3.8004,102.2655,84.94,64,79,7.02,ID,2022-03-08 05:44:45
135,Chapais,49.7834,-74.8492,13.78,92,100,11.05,CA,2022-03-08 05:44:45
136,Qinhuangdao,39.9317,119.5883,52.57,35,56,12.17,CN,2022-03-08 05:44:46
137,Lompoc,34.6391,-120.4579,55.13,82,0,3.44,US,2022-03-08 05:44:46
138,Bluff,-46.6,168.3333,64.36,78,68,3.06,NZ,2022-03-08 05:44:47
139,Ribeira Grande,38.5167,-28.7,58.66,74,90,30.13,PT,2022-03-08 05:44:48
140,Tuktoyaktuk,69.4541,-133.0374,5.0,85,100,11.5,CA,2022-03-08 05:44:48
141,Cabo San Lucas,22.8909,-109.9124,67.51,70,0,6.53,MX,2022-03-08 05:43:49
142,Ostrogozhsk,50.8664,39.0756,19.92,96,100,0.92,RU,2022-03-08 05:44:49
143,Hobyo,5.3505,48.5268,81.72,59,10,16.6,SO,2022-03-08 05:44:50
144,Port Lincoln,-34.7333,135.8667,65.68,64,82,21.74,AU,2022-03-08 05:44:51
145,Adwa,14.1646,38.8955,73.31,17,81,3.96,ET,2022-03-08 05:44:51
146,Manaure,11.7751,-72.4445,76.73,78,26,11.21,CO,2022-03-08 05:44:52
147,Alofi,-19.0595,-169.9187,82.29,83,70,4.61,NU,2022-03-08 05:44:52
148,Ngunguru,-35.6167,174.5,70.16,75,31,13.8,NZ,2022-03-08 05:44:53
149,Ust-Nera,64.5667,143.2,-5.03,92,18,2.82,RU,2022-03-08 05:44:53
150,Fougamou,-1.2154,10.5838,75.88,97,100,0.98,GA,2022-03-08 05:44:54
151,Valdivia,-39.8142,-73.2459,51.89,98,99,2.08,CL,2022-03-08 05:44:54
152,Rawson,-43.3002,-65.1023,60.12,68,35,9.48,AR,2022-03-08 05:44:55
153,Sokolo,14.7328,-6.1219,67.24,18,43,10.96,ML,2022-03-08 05:44:55
154,Fomboni,-12.28,43.7425,83.03,73,45,7.99,KM,2022-03-08 05:44:56
155,Saint-Philippe,-21.3585,55.7679,84.83,83,99,11.41,RE,2022-03-08 05:44:56
156,Auki,-8.7676,160.7034,82.27,80,100,1.16,SB,2022-03-08 05:44:57
157,Mayskiy,47.6931,40.1025,35.44,87,100,3.91,RU,2022-03-08 05:44:58
158,Lerwick,60.1545,-1.1494,42.8,80,93,26.06,GB,2022-03-08 05:44:58
159,Klaksvik,62.2266,-6.589,41.92,82,100,19.26,FO,2022-03-08 05:44:59
160,Pangnirtung,66.1451,-65.7125,-19.73,92,65,5.19,CA,2022-03-08 05:44:59
161,Souillac,-20.5167,57.5167,82.36,89,75,3.44,MU,2022-03-08 05:45:00
162,Ananindeua,-1.3656,-48.3722,76.91,94,40,3.44,BR,2022-03-08 05:45:00
163,Namibe,-15.1961,12.1522,72.55,66,67,4.05,AO,2022-03-08 05:45:01
164,Batsfjord,70.6345,29.7185,25.02,87,87,13.53,NO,2022-03-08 05:45:01
165,Hofn,64.2539,-15.2082,43.65,84,100,27.11,IS,2022-03-08 05:45:02
166,Praia Da Vitoria,38.7333,-27.0667,59.76,76,20,22.75,PT,2022-03-08 05:45:03
167,Petropavlovsk-Kamchatskiy,53.0452,158.6483,34.39,75,20,11.18,RU,2022-03-08 05:41:51
168,Kutum,14.2,24.6667,73.58,14,99,4.52,SD,2022-03-08 05:45:04
169,Paamiut,61.994,-49.6678,5.63,72,63,12.12,GL,2022-03-08 05:45:04
170,Beira,-19.8436,34.8389,82.49,78,40,2.3,MZ,2022-03-08 05:45:05
171,Felipe Carrillo Puerto,19.5833,-88.05,71.35,99,6,2.19,MX,2022-03-08 05:45:05
172,Durango,24.8333,-104.8333,49.17,25,0,7.74,MX,2022-03-08 05:42:18
173,Aykhal,66.0,111.5,-6.59,94,100,6.24,RU,2022-03-08 05:45:06
174,Saldanha,-33.0117,17.9442,60.85,84,0,10.94,ZA,2022-03-08 05:45:07
175,Rosarito,32.3333,-117.0333,56.35,55,0,3.71,MX,2022-03-08 05:40:39
176,Jamestown,42.097,-79.2353,31.32,66,100,12.66,US,2022-03-08 05:45:07
177,Hongjiang,27.11,109.9956,73.87,38,0,6.4,CN,2022-03-08 05:45:08
178,Urumqi,43.801,87.6005,41.95,65,63,13.42,CN,2022-03-08 05:45:08
179,Taldan,53.6667,124.8,29.48,65,99,3.87,RU,2022-03-08 05:46:09
180,Castro,-24.7911,-50.0119,64.63,88,48,1.45,BR,2022-03-08 05:46:09
181,Prince Rupert,54.3161,-130.3201,40.69,93,100,2.3,CA,2022-03-08 05:46:10
182,Khatanga,71.9667,102.5,-5.64,85,16,12.1,RU,2022-03-08 05:46:11
183,Kruisfontein,-34.0033,24.7314,68.88,84,96,3.51,ZA,2022-03-08 05:46:11
184,Waupun,43.6333,-88.7296,25.02,94,9,5.86,US,2022-03-08 05:46:12
185,Padang,-0.9492,100.3543,87.85,64,89,6.17,ID,2022-03-08 05:43:31
186,Wanning,18.8003,110.3967,72.91,52,27,12.64,CN,2022-03-08 05:46:12
187,Srednekolymsk,67.45,153.6833,-12.84,94,20,5.26,RU,2022-03-08 05:46:13
188,Eyl,7.9803,49.8164,80.35,55,22,14.85,SO,2022-03-08 05:46:14
189,Hanumangarh,29.5833,74.3167,84.58,21,6,6.67,IN,2022-03-08 05:46:15
190,Kavieng,-2.5744,150.7967,83.88,71,99,8.23,PG,2022-03-08 05:46:15
191,Sigli,5.3848,95.9609,82.62,74,92,8.77,ID,2022-03-08 05:46:16
192,Santa Maria,-29.6842,-53.8069,68.11,94,80,1.72,BR,2022-03-08 05:46:16
193,Pahrump,36.2083,-115.9839,47.05,21,0,5.99,US,2022-03-08 05:46:17
194,Mapiripan,2.8892,-72.1256,76.08,66,72,3.62,CO,2022-03-08 05:46:17
195,Zhangye,38.9342,100.4517,57.34,15,59,11.36,CN,2022-03-08 05:46:18
196,Severo-Kurilsk,50.6789,156.125,32.9,98,100,19.66,RU,2022-03-08 05:46:19
197,Alice Springs,-23.7,133.8833,85.55,21,0,13.8,AU,2022-03-08 05:44:18
198,Xuanhua,40.6103,115.0447,56.79,16,6,4.54,CN,2022-03-08 05:46:19
199,Careiro Da Varzea,-3.2003,-59.8119,75.81,97,100,4.16,BR,2022-03-08 05:46:20
200,Huarmey,-10.0681,-78.1522,73.83,73,99,3.42,PE,2022-03-08 05:46:21
201,Banfora,10.6333,-4.7667,78.51,17,9,7.4,BF,2022-03-08 05:46:22
202,Leningradskiy,69.3833,178.4167,3.43,93,31,2.37,RU,2022-03-08 05:46:22
203,Ambilobe,-13.2,49.05,81.12,85,100,4.83,MG,2022-03-08 05:46:23
204,Lashio,22.9333,97.75,91.81,21,30,4.81,MM,2022-03-08 05:46:23
205,Sitka,57.0531,-135.33,37.29,60,0,0.0,US,2022-03-08 05:46:24
206,Lake Havasu City,34.4839,-114.3224,59.0,13,0,16.11,US,2022-03-08 05:46:25
207,Ordu,40.9086,37.6845,32.5,98,100,7.74,TR,2022-03-08 05:46:25
208,Sosnovo-Ozerskoye,52.5249,111.5418,32.49,84,98,10.18,RU,2022-03-08 05:46:25
209,Asfi,32.2994,-9.2372,53.78,73,28,9.8,MA,2022-03-08 05:46:26
210,Oltu,40.5498,42.0013,31.95,66,72,5.68,TR,2022-03-08 05:46:27
211,Butaritari,3.0707,172.7902,80.71,82,91,16.93,KI,2022-03-08 05:46:27
212,Killybegs,54.6333,-8.45,37.72,78,67,24.65,IE,2022-03-08 05:46:28
213,Bonavista,48.6499,-53.1147,30.11,88,100,15.32,CA,2022-03-08 05:46:28
214,Dikson,73.5069,80.5464,-18.36,93,99,8.66,RU,2022-03-08 05:46:29
215,Seymchan,62.8833,152.4333,-9.2,87,98,1.5,RU,2022-03-08 05:46:30
216,Viedma,-40.8135,-62.9967,61.77,55,39,7.87,AR,2022-03-08 05:46:30
217,Bilma,18.6853,12.9164,79.52,12,97,11.25,NE,2022-03-08 05:46:31
218,Rio Grande,-32.035,-52.0986,68.11,86,77,5.12,BR,2022-03-08 05:44:52
219,Sambava,-14.2667,50.1667,80.76,78,100,5.1,MG,2022-03-08 05:46:32
220,Lasa,46.6166,10.7002,28.62,45,2,2.33,IT,2022-03-08 05:46:32
221,Abonnema,4.7084,6.7931,79.92,85,99,2.82,NG,2022-03-08 05:46:33
222,Petrovsk-Zabaykalskiy,51.273,108.843,38.26,73,94,3.33,RU,2022-03-08 05:46:34
223,Half Moon Bay,37.4636,-122.4286,56.79,49,0,0.0,US,2022-03-08 05:46:01
224,Superior,46.7208,-92.1041,22.17,60,0,12.66,US,2022-03-08 05:44:18
225,Hay River,60.8156,-115.7999,12.18,79,100,19.57,CA,2022-03-08 05:42:27
226,Fez,34.0372,-4.9998,50.25,81,75,6.91,MA,2022-03-08 05:46:35
227,Laguna,38.421,-121.4238,57.02,46,0,5.75,US,2022-03-08 05:47:35
228,Saint-Pierre,-21.3393,55.4781,85.91,68,99,2.3,RE,2022-03-08 05:47:36
229,Comodoro Rivadavia,-45.8667,-67.5,57.06,44,0,2.3,AR,2022-03-08 05:45:01
230,Eregli,37.5133,34.0467,36.52,95,96,4.52,TR,2022-03-08 05:47:37
231,Cabedelo,-6.9811,-34.8339,75.87,80,80,6.89,BR,2022-03-08 05:47:37
232,Bac Lieu,9.285,105.7244,87.28,54,38,20.51,VN,2022-03-08 05:47:38
233,Aripuana,-9.1667,-60.6333,71.76,100,100,2.57,BR,2022-03-08 05:47:38
234,Sola,-13.8833,167.55,83.98,71,75,7.7,VU,2022-03-08 05:47:39
235,Mattru,7.6244,-11.8332,73.71,79,5,1.16,SL,2022-03-08 05:47:40
236,Tabas,33.5959,56.9244,61.02,63,40,2.3,IR,2022-03-08 05:47:40
237,Hilo,19.7297,-155.09,70.25,91,63,1.01,US,2022-03-08 05:47:41
238,Torbay,47.6666,-52.7314,29.75,94,100,13.8,CA,2022-03-08 05:45:07
239,Saint-Louis,16.3333,-15.0,67.37,19,84,10.89,SN,2022-03-08 05:47:46
240,Asau,46.4333,26.4,29.75,79,99,3.6,RO,2022-03-08 05:47:46
241,Dingle,10.9995,122.6711,85.84,65,67,12.75,PH,2022-03-08 05:47:47
242,Monrovia,6.3005,-10.7969,76.77,93,18,4.83,LR,2022-03-08 05:47:47
243,Young,-32.6833,-57.6333,60.22,74,59,7.47,UY,2022-03-08 05:47:48
244,Vestmannaeyjar,63.4427,-20.2734,44.65,89,100,37.78,IS,2022-03-08 05:47:48
245,Katsuura,35.1333,140.3,48.11,88,90,15.12,JP,2022-03-08 05:47:49
246,Dunedin,-45.8742,170.5036,63.81,72,13,8.01,NZ,2022-03-08 05:47:39
247,Arraial Do Cabo,-22.9661,-42.0278,76.23,89,56,20.09,BR,2022-03-08 05:47:50
248,Te Anau,-45.4167,167.7167,66.56,62,40,7.02,NZ,2022-03-08 05:47:50
249,Vanavara,60.34,102.2797,32.16,88,100,10.96,RU,2022-03-08 05:47:51
250,Yar-Sale,66.8333,70.8333,-17.66,95,83,14.2,RU,2022-03-08 05:47:51
251,Lamu,-2.2717,40.902,82.62,71,17,10.31,KE,2022-03-08 05:47:52
252,Nyrob,60.733,56.7202,-8.68,92,92,4.09,RU,2022-03-08 05:47:52
253,Walvis Bay,-22.9575,14.5053,61.75,94,30,5.75,NA,2022-03-08 05:47:53
254,Kloulklubed,7.0419,134.2556,84.7,76,40,10.09,PW,2022-03-08 05:47:53
255,Norman Wells,65.282,-126.8329,10.44,79,75,8.05,CA,2022-03-08 05:47:54
256,Tolaga Bay,-38.3667,178.3,66.4,73,26,5.86,NZ,2022-03-08 05:47:54
257,Zhob,31.3411,69.4481,59.63,55,97,4.41,PK,2022-03-08 05:47:55
258,Pevek,69.7008,170.3133,-7.26,99,49,1.88,RU,2022-03-08 05:47:55
259,Moyale,3.5167,39.0584,75.94,42,3,7.45,KE,2022-03-08 05:47:56
260,Bambous Virieux,-20.3428,57.7575,82.22,89,75,3.44,MU,2022-03-08 05:47:56
261,Port Blair,11.6667,92.75,87.84,62,75,4.61,IN,2022-03-08 05:47:57
262,Homer,59.6425,-151.5483,40.8,63,100,1.99,US,2022-03-08 05:47:58
263,Kaitangata,-46.2817,169.8464,62.96,81,29,5.21,NZ,2022-03-08 05:47:59
264,Mahibadhoo,3.7833,72.9667,81.63,71,87,7.94,MV,2022-03-08 05:48:00
265,Tiksi,71.6872,128.8694,-12.24,99,100,2.98,RU,2022-03-08 05:48:00
266,Pedasi,7.5333,-80.0333,76.06,86,38,11.77,PA,2022-03-08 05:48:01
267,Jumla,29.2747,82.1838,62.38,14,5,4.05,NP,2022-03-08 05:48:02
268,Lipin Bor,60.2622,37.9763,-3.42,96,22,5.06,RU,2022-03-08 05:48:02
269,Champerico,14.3,-91.9167,84.34,74,34,10.29,GT,2022-03-08 05:48:03
270,Emba,48.8264,58.1442,18.68,80,84,6.73,KZ,2022-03-08 05:48:04
271,Faanui,-16.4833,-151.75,82.08,73,96,14.72,PF,2022-03-08 05:48:04
272,San Ramon,37.7799,-121.978,55.62,48,0,4.61,US,2022-03-08 05:48:05
273,Marquette,46.5333,-87.6335,15.67,94,27,6.64,US,2022-03-08 05:48:05
274,Ciudad Bolivar,8.1222,-63.5497,75.43,79,94,10.54,VE,2022-03-08 05:44:33
275,Eydhafushi,5.1033,73.0708,81.7,73,85,8.37,MV,2022-03-08 05:48:06
276,Davila,18.4726,120.5763,85.98,76,57,29.1,PH,2022-03-08 05:49:07
277,Lamar,33.6668,-95.5836,37.06,75,0,8.05,US,2022-03-08 05:49:07
278,Bemidji,47.4736,-94.8803,21.56,92,0,6.91,US,2022-03-08 05:49:08
279,Anadyr,64.75,177.4833,28.9,100,75,8.95,RU,2022-03-08 05:49:08
280,Freuchie,56.2483,-3.1587,38.68,74,14,5.99,GB,2022-03-08 05:49:09
281,Luanda,-8.8368,13.2343,78.8,83,75,4.61,AO,2022-03-08 05:49:10
282,Vigeland,58.0844,7.305,33.94,65,92,6.17,NO,2022-03-08 05:49:11
283,Soyo,-6.1349,12.3689,79.88,83,100,4.59,AO,2022-03-08 05:49:11
284,Manacapuru,-3.2997,-60.6206,73.98,96,100,4.0,BR,2022-03-08 05:49:12
285,Pukhrayan,26.2333,79.85,87.42,17,75,8.01,IN,2022-03-08 05:49:12
286,Ilulissat,69.2167,-51.1,12.22,79,100,18.41,GL,2022-03-08 05:44:17
287,Namikupa,-10.8333,39.6,77.56,87,82,1.03,TZ,2022-03-08 05:49:13
288,Portland,45.5234,-122.6762,45.81,87,20,1.99,US,2022-03-08 05:46:10
289,Ippy,6.2679,21.2247,80.73,43,100,3.13,CF,2022-03-08 05:49:14
290,Byron Bay,-28.65,153.6167,86.05,58,12,2.57,AU,2022-03-08 05:49:14
291,Ponta Delgada,37.7333,-25.6667,58.5,77,75,14.97,PT,2022-03-08 05:47:25
292,Carutapera,-1.195,-46.02,75.18,94,100,4.61,BR,2022-03-08 05:49:15
293,Hulan Ergi,47.2042,123.6333,34.88,81,79,5.21,CN,2022-03-08 05:49:15
294,Nouadhibou,20.931,-17.0347,60.78,67,75,27.63,MR,2022-03-08 05:49:16
295,Bathurst,-33.4166,149.5806,68.83,87,100,12.8,AU,2022-03-08 05:46:20
296,Chuy,-33.6971,-53.4616,62.51,80,99,5.93,UY,2022-03-08 05:49:17
297,Mar Del Plata,-38.0023,-57.5575,62.1,82,0,8.05,AR,2022-03-08 05:49:11
298,Constitucion,-35.3333,-72.4167,55.0,81,0,8.48,CL,2022-03-08 05:45:56
299,Nanortalik,60.1432,-45.2371,13.01,70,18,8.23,GL,2022-03-08 05:49:18
300,Vestmanna,62.1564,-7.1664,40.12,81,75,17.27,FO,2022-03-08 05:49:19
301,Maragogi,-9.0122,-35.2225,75.13,84,37,4.25,BR,2022-03-08 05:49:19
302,Gondar,12.6,37.4667,73.35,20,89,3.06,ET,2022-03-08 05:49:20
303,Yeppoon,-23.1333,150.7333,96.58,55,22,16.51,AU,2022-03-08 05:49:21
304,Neyshabur,36.2133,58.7958,47.8,66,99,2.46,IR,2022-03-08 05:49:21
305,Manali,13.1667,80.2667,89.69,69,63,9.57,IN,2022-03-08 05:49:22
306,Kichera,55.9375,110.0997,31.84,96,100,5.28,RU,2022-03-08 05:49:22
307,Moose Factory,51.2585,-80.6094,5.0,78,100,5.75,CA,2022-03-08 05:49:22
308,Gawler,-34.6,138.7333,75.25,48,0,15.23,AU,2022-03-08 05:45:05
309,Sebinkarahisar,40.2883,38.4236,31.91,98,100,2.3,TR,2022-03-08 05:49:23
310,Mandera,3.9366,41.867,83.21,45,40,10.65,KE,2022-03-08 05:49:24
311,Kodiak,57.79,-152.4072,40.51,93,100,12.66,US,2022-03-08 05:49:25
312,Katima Mulilo,-17.5,24.2667,68.72,91,94,5.32,NA,2022-03-08 05:49:26
313,Batemans Bay,-35.7167,150.1833,68.99,97,100,21.65,AU,2022-03-08 05:49:26
314,Nome,64.5011,-165.4064,28.17,68,0,17.27,US,2022-03-08 05:49:27
315,Nabire,-3.3667,135.4833,84.78,63,96,3.89,ID,2022-03-08 05:49:28
316,Dodoma,-6.1722,35.7395,72.03,78,45,2.1,TZ,2022-03-08 05:46:13
317,Necochea,-38.5473,-58.7368,55.04,79,2,10.94,AR,2022-03-08 05:49:29
318,Lagoa,39.05,-27.9833,58.44,74,100,32.23,PT,2022-03-08 05:50:29
319,Beyneu,45.3167,55.2,37.69,36,10,15.79,KZ,2022-03-08 05:50:30
320,Luena,-11.7833,19.9167,63.79,93,100,3.87,AO,2022-03-08 05:50:31
321,Touros,-5.1989,-35.4608,76.1,87,99,9.6,BR,2022-03-08 05:50:31
322,Evensk,61.95,159.2333,22.06,73,100,20.89,RU,2022-03-08 05:50:32
323,Isangel,-19.55,169.2667,81.93,80,69,6.93,VU,2022-03-08 05:50:32
324,Vao,-22.6667,167.4833,80.11,71,42,2.46,NC,2022-03-08 05:50:33
325,Miles City,46.4083,-105.8406,32.97,86,100,24.16,US,2022-03-08 05:50:34
326,Beringovskiy,63.05,179.3167,29.95,92,94,3.13,RU,2022-03-08 05:50:34
327,Morehead,37.2711,-87.1764,37.15,76,95,5.01,US,2022-03-08 05:50:34
328,Fort-Shevchenko,44.5086,50.263,38.41,74,83,20.4,KZ,2022-03-08 05:50:35
329,Khadzhalmakhi,42.42,47.1821,33.75,48,62,1.68,RU,2022-03-08 05:50:36
330,Imeni Poliny Osipenko,52.4201,136.4853,20.28,84,99,4.9,RU,2022-03-08 05:50:36
331,Semirom,31.4167,51.5667,42.42,66,33,10.29,IR,2022-03-08 05:50:37
332,Almaznyy,48.0448,40.045,28.54,87,100,4.9,RU,2022-03-08 05:50:37
333,Sedalia,38.7045,-93.2283,29.48,80,0,3.44,US,2022-03-08 05:50:37
334,Guarda,40.5373,-7.2658,38.91,96,100,4.5,PT,2022-03-08 05:50:38
335,Progreso,21.2833,-89.6667,79.11,76,3,8.52,MX,2022-03-08 05:47:31
336,Aklavik,68.2191,-135.0107,5.83,99,70,4.03,CA,2022-03-08 05:50:39
337,Itaituba,-4.2761,-55.9836,72.37,100,100,0.74,BR,2022-03-08 05:50:39
338,Chokurdakh,70.6333,147.9167,-18.26,99,72,3.83,RU,2022-03-08 05:50:40
339,Catuday,16.2923,119.8062,79.2,70,51,13.67,PH,2022-03-08 05:50:40
340,Hualmay,-11.0964,-77.6139,73.27,76,97,4.5,PE,2022-03-08 05:50:41
341,Nueva Gerona,21.8833,-82.8,75.61,83,0,6.15,CU,2022-03-08 05:50:42
342,Mus,39.0,41.75,20.39,95,99,2.62,TR,2022-03-08 05:50:42
343,Bethel,41.3712,-73.414,48.29,65,0,18.41,US,2022-03-08 05:45:57
344,Lerik,38.7726,48.4128,33.44,64,23,2.37,AZ,2022-03-08 05:50:43
345,Peqin,41.0461,19.7511,37.26,80,98,2.86,AL,2022-03-08 05:50:43
346,Palmer,42.1584,-72.3287,43.97,61,75,20.71,US,2022-03-08 05:46:16
347,Bubaque,11.2833,-15.8333,77.85,55,49,11.95,GW,2022-03-08 05:50:44
348,Korgen,66.0771,13.8153,42.51,100,100,6.2,NO,2022-03-08 05:50:45
349,Ivanovka,42.8878,75.085,41.43,73,100,3.67,KG,2022-03-08 05:50:45
350,Shyryayeve,47.3805,30.1964,29.88,89,100,9.82,UA,2022-03-08 05:50:46
351,Penugonda,16.6667,81.7333,86.38,28,3,1.68,IN,2022-03-08 05:50:46
352,Victoria,22.2855,114.1577,70.03,44,2,10.0,HK,2022-03-08 05:50:15
353,Cap Malheureux,-19.9842,57.6142,81.46,82,54,7.0,MU,2022-03-08 05:50:47
354,Antofagasta,-23.65,-70.4,65.48,84,27,0.31,CL,2022-03-08 05:50:29
355,Husavik,66.0449,-17.3389,31.91,95,100,3.65,IS,2022-03-08 05:50:47
356,Seoul,37.5683,126.9778,54.91,42,0,6.91,KR,2022-03-08 05:50:48
357,Port Moresby,-9.4431,147.1797,87.22,66,40,17.27,PG,2022-03-08 05:50:49
358,Magdalena,14.1999,121.429,89.42,64,54,12.75,PH,2022-03-08 05:50:50
359,Buenos Aires,-34.6132,-58.3772,67.73,67,0,4.61,AR,2022-03-08 05:50:11
360,Arman,59.7,150.1667,16.79,77,100,9.84,RU,2022-03-08 05:50:51
361,Maneadero,31.7167,-116.5667,58.19,29,0,8.12,MX,2022-03-08 05:51:51
362,Slave Lake,55.2834,-114.769,15.78,79,100,6.91,CA,2022-03-08 05:51:52
363,Guerrero Negro,27.9769,-114.0611,58.64,62,1,5.73,MX,2022-03-08 05:51:53
364,Dalbandin,28.8947,64.4101,74.01,26,75,17.45,PK,2022-03-08 05:51:53
365,Sabzevar,36.2126,57.6819,47.48,61,100,11.5,IR,2022-03-08 05:51:54
366,Sao Filipe,14.8961,-24.4956,70.09,69,46,10.18,CV,2022-03-08 05:51:54
367,Cayenne,4.9333,-52.3333,75.09,92,75,4.0,GF,2022-03-08 05:51:55
368,Paranagua,-25.52,-48.5092,78.49,98,92,3.71,BR,2022-03-08 05:51:55
369,Cidreira,-30.1811,-50.2056,71.87,93,95,6.8,BR,2022-03-08 05:51:56
370,Sibu,2.3,111.8167,89.91,62,40,2.3,MY,2022-03-08 05:51:56
371,Vydrino,51.485,104.8461,32.85,94,100,3.02,RU,2022-03-08 05:51:57
372,Apt,43.8833,5.4,37.04,71,0,5.75,FR,2022-03-08 05:51:57
373,Turukhansk,65.8167,87.9833,10.44,85,100,14.83,RU,2022-03-08 05:51:58
374,Awbari,26.5921,12.7805,59.04,49,2,16.49,LY,2022-03-08 05:51:58
375,Nyurba,63.2842,118.3319,5.99,88,100,3.31,RU,2022-03-08 05:51:59
376,Lynn,42.4668,-70.9495,48.47,65,100,20.71,US,2022-03-08 05:51:59
377,Naifaru,5.4444,73.3657,81.93,71,94,8.95,MV,2022-03-08 05:52:00
378,Sassandra,4.95,-6.0833,77.34,94,28,2.66,CI,2022-03-08 05:52:00
379,Sayaxche,16.5167,-90.1667,69.55,96,1,4.07,GT,2022-03-08 05:52:01
380,Yulara,-25.2406,130.9889,87.64,20,0,4.61,AU,2022-03-08 05:52:01
381,Haicheng,40.8516,122.7475,53.28,24,80,19.06,CN,2022-03-08 05:52:02
382,Dubuque,42.4833,-90.8668,21.49,77,0,4.61,US,2022-03-08 05:52:03
383,Kokkola,63.8385,23.1307,30.04,94,100,1.99,FI,2022-03-08 05:52:03
384,Jiangyou,31.7667,104.7167,71.26,46,16,4.63,CN,2022-03-08 05:52:04
385,Klyuchi,52.2667,79.1667,9.99,74,73,16.46,RU,2022-03-08 05:52:05
386,Christchurch,-43.5333,172.6333,66.94,77,75,18.41,NZ,2022-03-08 05:48:42
387,Nakamura,32.9833,132.9333,56.03,37,0,2.39,JP,2022-03-08 05:52:05
388,Hanko,59.8333,22.95,33.06,98,100,7.83,FI,2022-03-08 05:52:10
389,Ariyalur,11.1333,79.0833,86.16,46,84,8.19,IN,2022-03-08 05:52:11
390,Oudtshoorn,-33.5907,22.2014,64.76,81,96,3.0,ZA,2022-03-08 05:52:11
391,Luderitz,-26.6481,15.1594,69.57,70,0,16.42,NA,2022-03-08 05:52:12
392,Ambon,-3.6954,128.1814,89.74,62,40,17.27,ID,2022-03-08 05:52:12
393,Erdaojiang,41.7764,126.0319,37.6,67,100,3.89,CN,2022-03-08 05:52:13
394,Rechitsy,55.5978,38.4639,26.98,92,100,10.78,RU,2022-03-08 05:52:13
395,Jutai,-5.1833,-68.9,72.23,96,100,0.81,BR,2022-03-08 05:52:14
396,Nawa,27.0167,75.0,84.88,19,85,12.71,IN,2022-03-08 05:52:14
397,Pisco,-13.7,-76.2167,73.45,83,75,3.44,PE,2022-03-08 05:52:15
398,High Level,58.5169,-117.136,19.51,68,75,13.8,CA,2022-03-08 05:52:15
399,Barmer,25.75,71.3833,87.93,15,1,11.83,IN,2022-03-08 05:52:16
400,Yerbogachen,61.2767,108.0108,12.96,92,100,11.25,RU,2022-03-08 05:52:16
401,Ales,44.1333,4.0833,38.25,61,35,2.59,FR,2022-03-08 05:52:17
402,Markova,48.6758,24.4138,27.12,91,100,6.98,UA,2022-03-08 05:52:17
403,Hella,67.2,14.4333,37.76,95,100,20.71,NO,2022-03-08 05:52:18
404,Faya,18.3851,42.4509,64.51,41,5,2.53,SA,2022-03-08 05:52:18
405,Kolyshley,52.7005,44.5367,19.8,94,100,3.67,RU,2022-03-08 05:52:19
406,Pesaro,43.9036,12.8903,41.99,56,29,8.01,IT,2022-03-08 05:52:19
407,Cockburn Town,21.4612,-71.1419,77.09,75,0,21.63,TC,2022-03-08 05:52:20
408,Cabras,39.93,8.5314,37.54,70,0,6.91,IT,2022-03-08 05:52:21
409,San Andres,12.5847,-81.7006,80.62,78,20,11.5,CO,2022-03-08 05:53:21
410,Katete,-0.7818,29.7544,67.32,82,22,2.01,UG,2022-03-08 05:53:22
411,Xapuri,-10.6517,-68.5044,71.73,99,100,1.86,BR,2022-03-08 05:53:22
412,Basco,20.4487,121.9702,69.94,66,41,29.64,PH,2022-03-08 05:53:22
413,Chumikan,54.7183,135.315,14.32,88,99,3.96,RU,2022-03-08 05:53:23
414,Beisfjord,68.3751,17.5988,28.45,79,100,6.49,NO,2022-03-08 05:53:23
415,Bajil,15.0584,43.2851,78.75,57,73,3.76,YE,2022-03-08 05:53:24
416,Kahului,20.8947,-156.47,75.22,71,20,9.22,US,2022-03-08 05:50:59
417,Japura,-0.3167,102.35,84.97,76,98,2.71,ID,2022-03-08 05:53:25
418,Kota Belud,6.351,116.4305,87.66,73,100,4.05,MY,2022-03-08 05:53:25
419,Pastavy,55.1168,26.8326,19.27,84,83,8.86,BY,2022-03-08 05:53:25
420,Alyangula,-13.8483,136.4192,94.87,52,86,8.05,AU,2022-03-08 05:53:26
421,Iwanai,42.9744,140.5089,34.14,71,91,8.9,JP,2022-03-08 05:53:26
422,Fort Nelson,58.8053,-122.7002,18.99,63,75,3.44,CA,2022-03-08 05:53:27
423,Kikwit,-5.041,18.8162,72.88,91,81,2.44,CD,2022-03-08 05:53:27
424,Monterey,36.2505,-121.2516,46.17,42,0,5.28,US,2022-03-08 05:50:30
425,Sterling,39.0062,-77.4286,52.9,59,75,1.99,US,2022-03-08 05:50:18
426,Codrington,-38.2667,141.9667,62.64,55,32,21.52,AU,2022-03-08 05:53:28
427,Harrai,22.6167,79.2167,87.22,14,74,5.17,IN,2022-03-08 05:53:29
428,Cave Spring,37.2276,-80.0128,53.71,68,0,16.11,US,2022-03-08 05:53:29
429,Puerto Carreno,6.189,-67.4859,79.48,54,65,10.92,CO,2022-03-08 05:53:30
430,George,-33.963,22.4617,65.75,100,100,2.3,ZA,2022-03-08 05:53:30
431,Aswan,24.0934,32.907,61.9,33,0,6.91,EG,2022-03-08 05:53:31
432,Kuito,-12.3833,16.9333,62.29,90,100,1.86,AO,2022-03-08 05:53:31
433,Yelets,52.6237,38.5017,24.39,96,100,6.17,RU,2022-03-08 05:53:32
434,Serpa,37.9458,-7.5975,49.96,96,93,2.89,PT,2022-03-08 05:53:32
435,Parabel,58.6978,81.4825,2.28,81,100,14.27,RU,2022-03-08 05:53:33
436,Novo Aripuana,-5.1206,-60.3797,72.37,99,93,2.01,BR,2022-03-08 05:53:33
437,Vostok,46.4856,135.8833,25.14,82,100,5.84,RU,2022-03-08 05:53:33
438,Kurayoshi,35.4333,133.8167,51.62,61,8,4.7,JP,2022-03-08 05:53:34
439,Victor Harbor,-35.5667,138.6167,72.81,75,87,4.0,AU,2022-03-08 05:49:07
440,Ratnagiri,16.9833,73.3,89.47,40,2,8.68,IN,2022-03-08 05:53:35
441,Nelson Bay,-32.7167,152.15,77.11,75,11,1.01,AU,2022-03-08 05:53:35
442,Vysokogornyy,50.1167,139.15,21.52,80,100,7.56,RU,2022-03-08 05:53:35
443,Torrevieja,37.9787,-0.6822,50.11,83,100,1.01,ES,2022-03-08 05:52:45
444,Mandalgovi,45.7625,106.2708,44.53,19,63,17.47,MN,2022-03-08 05:53:36
445,Saint Anthony,45.0205,-93.218,24.64,88,0,8.05,US,2022-03-08 05:53:37
446,Khovu-Aksy,51.1333,93.6,30.33,78,75,5.86,RU,2022-03-08 05:53:37
447,Pryozerne,45.2698,36.3303,35.65,65,100,13.82,UA,2022-03-08 05:53:38
448,Gidole,5.65,37.3667,69.4,29,9,2.59,ET,2022-03-08 05:53:38
449,Daru,-9.0763,143.2092,84.78,71,100,7.54,PG,2022-03-08 05:53:39
450,Katangli,51.7102,143.2326,22.06,79,85,12.21,RU,2022-03-08 05:53:39
451,Coihaique,-45.5752,-72.0662,48.15,87,100,2.3,CL,2022-03-08 05:53:40
452,Buta,2.7858,24.73,78.03,70,45,2.73,CD,2022-03-08 05:53:40
453,Waddan,29.1614,16.139,57.16,74,98,12.15,LY,2022-03-08 05:53:41
454,Skjervoy,70.0311,20.9714,28.4,70,100,15.52,NO,2022-03-08 05:53:41
455,Hampton,37.0299,-76.3452,68.0,83,100,17.27,US,2022-03-08 05:53:42
456,Bogande,12.9714,-0.1436,75.88,9,59,11.77,BF,2022-03-08 05:53:42
457,Camacha,33.0833,-16.3333,56.62,72,40,9.22,PT,2022-03-08 05:53:43
458,Vanimo,-2.6741,141.3028,79.5,86,95,4.97,PG,2022-03-08 05:54:44
459,Taybad,34.74,60.7756,47.88,65,95,2.33,IR,2022-03-08 05:54:44
460,Shimoda,34.6667,138.95,48.56,74,94,5.84,JP,2022-03-08 05:54:44
461,Sept-Iles,50.2001,-66.3821,23.52,92,100,5.01,CA,2022-03-08 05:50:57
462,Arroyo Grande,35.1186,-120.5907,52.34,58,0,4.61,US,2022-03-08 05:54:45
463,Elk City,35.412,-99.4043,29.08,80,0,0.0,US,2022-03-08 05:52:35
464,Iskateley,67.6803,53.1512,-6.84,97,100,10.38,RU,2022-03-08 05:54:46
465,Port Augusta,-32.5,137.7667,85.71,33,0,24.96,AU,2022-03-08 05:54:46
466,Matara,5.9485,80.5353,89.53,54,37,4.7,LK,2022-03-08 05:54:47
467,Grand Junction,39.0639,-108.5507,29.64,64,12,3.0,US,2022-03-08 05:54:48
468,Lere,10.387,8.5726,74.14,53,93,2.08,NG,2022-03-08 05:54:48
469,Meulaboh,4.1363,96.1285,76.69,93,100,6.42,ID,2022-03-08 05:54:49
470,Veracruz,19.3333,-96.6667,69.87,88,61,0.56,MX,2022-03-08 05:54:11
471,Zhigansk,66.7697,123.3711,-2.9,88,80,10.45,RU,2022-03-08 05:54:49
472,Udachnyy,66.4167,112.4,-4.56,76,98,5.77,RU,2022-03-08 05:54:50
473,Casa Nova,-9.4167,-41.1333,75.18,68,95,15.3,BR,2022-03-08 05:54:50
474,Mogadishu,2.0371,45.3438,82.27,74,75,16.11,SO,2022-03-08 05:50:44
475,Eirunepe,-6.6603,-69.8736,69.13,99,97,0.11,BR,2022-03-08 05:54:51
476,Nyimba,-14.5566,30.8149,72.12,90,24,4.74,ZM,2022-03-08 05:54:52
477,Geraldton,-28.7667,114.6,100.81,16,39,8.05,AU,2022-03-08 05:54:52
478,Lebu,-37.6167,-73.65,54.3,87,32,2.51,CL,2022-03-08 05:54:52
479,Nueva Loja,0.0847,-76.8828,71.42,100,100,1.19,EC,2022-03-08 05:54:53
480,Atar,20.5169,-13.0499,59.59,33,47,9.28,MR,2022-03-08 05:54:53
481,Marystown,47.1666,-55.1483,34.86,100,100,3.0,CA,2022-03-08 05:54:54
482,Marevo,57.3146,32.0804,7.7,92,93,5.7,RU,2022-03-08 05:54:54
483,Correntina,-13.3433,-44.6367,70.2,80,95,1.16,BR,2022-03-08 05:54:55
484,Bonfim,3.0833,-59.95,74.91,85,94,5.17,BR,2022-03-08 05:54:55
485,Englewood,39.6478,-104.9878,24.21,79,96,1.99,US,2022-03-08 05:54:56
486,Naze,28.3667,129.4833,63.52,51,3,12.93,JP,2022-03-08 05:54:56
487,Tacoronte,28.4769,-16.4102,56.55,81,75,13.0,ES,2022-03-08 05:54:57
488,Katsina,12.9894,7.6006,74.26,23,24,7.96,NG,2022-03-08 05:54:57
489,Launceston,-41.45,147.1667,68.61,41,91,16.11,AU,2022-03-08 05:54:58
490,Uthal,25.8072,66.6219,85.32,25,15,4.14,PK,2022-03-08 05:54:58
491,Jeremie,18.65,-74.1167,75.0,81,0,3.94,HT,2022-03-08 05:54:59
492,Glens Falls,43.3095,-73.644,39.07,72,49,7.0,US,2022-03-08 05:55:00
493,Domoni,-12.2569,44.5319,82.99,79,97,5.93,KM,2022-03-08 05:55:00
494,Smyrna,33.884,-84.5144,53.76,89,75,11.5,US,2022-03-08 05:55:01
495,Dongkan,33.9997,119.8308,67.98,32,0,7.47,CN,2022-03-08 05:55:01
496,Okhtyrka,50.3104,34.8988,27.79,92,94,6.87,UA,2022-03-08 05:55:02
497,Bereda,43.2686,-7.5406,44.01,99,98,5.73,ES,2022-03-08 05:55:03
498,Lethem,3.3803,-59.7968,73.4,92,98,8.12,GY,2022-03-08 05:55:03
499,Cayhagan,9.6697,122.4256,84.02,71,100,13.0,PH,2022-03-08 05:55:04
500,Mastic Beach,40.7668,-72.8521,51.85,58,100,8.99,US,2022-03-08 05:55:04
501,Mandali,33.7499,45.5541,61.77,48,4,12.08,IQ,2022-03-08 05:55:05
502,Kununurra,-15.7667,128.7333,96.78,49,97,4.61,AU,2022-03-08 05:55:05
503,Tessalit,20.1986,1.0114,56.89,25,0,7.94,ML,2022-03-08 05:55:06
504,Valparaiso,-33.0393,-71.6273,55.04,82,0,0.0,CL,2022-03-08 05:55:27
505,Quatre Cocos,-20.2078,57.7625,81.09,80,80,10.11,MU,2022-03-08 05:56:11
506,Maralal,1.0968,36.698,69.06,44,22,8.32,KE,2022-03-08 05:56:12
507,Huntsville,34.7304,-86.5861,47.82,84,75,13.8,US,2022-03-08 05:54:17
508,Arcata,40.8665,-124.0828,44.92,85,21,2.59,US,2022-03-08 05:56:13
509,Casablanca,33.5928,-7.6192,51.75,78,71,9.46,MA,2022-03-08 05:56:13
510,Hambantota,6.1241,81.1185,89.94,66,20,10.36,LK,2022-03-08 05:56:14
511,Petropavlovka,50.6114,105.3196,32.05,86,100,3.83,RU,2022-03-08 05:56:14
512,Berlevag,70.8578,29.0864,34.18,77,100,17.74,NO,2022-03-08 05:56:15
513,Ozark,37.0209,-93.206,31.28,83,83,1.99,US,2022-03-08 05:56:15
514,Waingapu,-9.6567,120.2641,83.34,77,78,3.11,ID,2022-03-08 05:56:16
515,Farafenni,13.5667,-15.6,73.78,11,14,9.33,GM,2022-03-08 05:56:17
516,Raudeberg,61.9875,5.1352,36.86,68,93,15.82,NO,2022-03-08 05:56:17
517,Whitehorse,60.7161,-135.0538,14.77,62,0,5.75,CA,2022-03-08 05:56:18
518,Nautla,20.2167,-96.7833,72.77,95,44,8.61,MX,2022-03-08 05:56:18
519,Kavaratti,10.5669,72.642,81.57,70,13,3.98,IN,2022-03-08 05:56:19
520,Airai,-8.9266,125.4092,63.52,94,98,0.45,TL,2022-03-08 05:56:19
521,Pailon,-17.65,-62.75,76.1,99,59,3.24,BO,2022-03-08 05:56:20
522,Muzaffarabad,34.37,73.4711,67.78,49,72,3.49,PK,2022-03-08 05:56:20
523,Gorom-Gorom,14.4439,-0.2361,71.01,10,40,12.17,BF,2022-03-08 05:56:21
524,Muereasca,45.1833,24.3333,23.9,84,100,5.01,RO,2022-03-08 05:56:21
525,Tongliao,43.6125,122.2653,40.39,71,41,5.86,CN,2022-03-08 05:56:22
526,Kaeo,-35.1,173.7833,70.32,84,44,10.96,NZ,2022-03-08 05:56:22
527,Yola,9.2,12.4833,82.89,39,80,3.24,NG,2022-03-08 05:56:23
528,Pitimbu,-7.4706,-34.8086,75.79,79,78,3.27,BR,2022-03-08 05:56:23
529,Conceicao Do Araguaia,-8.2578,-49.2647,70.07,95,87,2.35,BR,2022-03-08 05:56:24
530,Ayan,56.45,138.1667,12.45,84,99,2.71,RU,2022-03-08 05:56:24
531,Filadelfia,39.9523,-75.1638,48.45,57,0,8.99,US,2022-03-08 05:52:12
532,Los Llanos De Aridane,28.6585,-17.9182,56.95,67,0,8.05,ES,2022-03-08 05:56:25
533,Adrar,20.5022,-10.0711,55.08,29,71,9.57,MR,2022-03-08 05:56:26
534,Kirakira,-10.4544,161.9205,84.76,76,99,7.99,SB,2022-03-08 05:56:26
535,Great Yarmouth,52.6083,1.7305,37.24,64,0,20.24,GB,2022-03-08 05:56:27
536,Kupang,-10.1667,123.5833,80.65,82,100,3.44,ID,2022-03-08 05:56:28
537,Paredon,16.0333,-93.8667,77.63,69,76,2.24,MX,2022-03-08 05:56:28
538,Napa,38.4832,-122.3344,53.31,44,16,5.77,US,2022-03-08 05:56:29
539,Shymkent,42.3,69.6,39.79,81,40,6.71,KZ,2022-03-08 05:56:29
540,Kieta,-6.2167,155.6333,83.68,73,59,3.56,PG,2022-03-08 05:56:29
541,Sao Francisco De Paula,-29.4481,-50.5836,64.69,97,89,2.91,BR,2022-03-08 05:56:30
542,Omboue,-1.5746,9.2618,78.91,88,100,3.29,GA,2022-03-08 05:56:31
543,Shuiji,27.4214,118.345,65.91,41,0,1.7,CN,2022-03-08 05:56:31
544,Balabag,11.97,121.9192,80.8,81,77,17.2,PH,2022-03-08 05:56:32
545,Boffa,10.1667,-14.0333,73.51,64,25,3.36,GN,2022-03-08 05:56:32
546,Sheregesh,52.9209,87.9869,30.18,95,100,10.11,RU,2022-03-08 05:56:33
547,Kijang,35.2442,129.2139,58.73,32,29,12.28,KR,2022-03-08 05:56:33
548,Yumen,40.2833,97.2,57.24,14,95,27.42,CN,2022-03-08 05:56:34
549,Alpena,45.0617,-83.4327,23.14,86,27,4.0,US,2022-03-08 05:56:34
550,Ambikapur,23.1167,83.2,87.01,11,19,9.42,IN,2022-03-08 05:56:35
551,Komsomolskiy,40.4272,71.7189,47.62,87,100,4.61,UZ,2022-03-08 05:57:35
552,Socuellamos,39.2858,-2.7921,41.45,87,96,10.58,ES,2022-03-08 05:57:35
553,Kotka,60.4664,26.9458,22.32,88,100,11.48,FI,2022-03-08 05:57:36
554,Lulea,65.5842,22.1547,23.07,93,100,4.61,SE,2022-03-08 05:57:36
555,Orsk,51.2049,58.5668,13.1,79,75,8.95,RU,2022-03-08 05:57:37
556,Tateyama,34.9833,139.8667,48.47,84,97,18.01,JP,2022-03-08 05:57:37
557,San Cristobal,7.7669,-72.225,68.18,92,63,3.15,VE,2022-03-08 05:57:38
558,Mandurah,-32.55,115.7,92.14,44,52,9.6,AU,2022-03-08 05:57:39
559,Kjopsvik,68.097,16.3742,32.16,81,100,6.85,NO,2022-03-08 05:57:39
560,Ulaanbaatar,47.9077,106.8832,50.13,23,0,15.66,MN,2022-03-08 05:55:43
561,Banepa,27.6298,85.5214,73.72,29,20,3.44,NP,2022-03-08 05:57:40
562,Maniitsoq,65.4167,-52.9,12.85,92,100,7.05,GL,2022-03-08 05:57:40
563,Grand Gaube,-20.0064,57.6608,81.37,83,55,5.99,MU,2022-03-08 05:57:41
564,Kargat,55.1956,80.2811,1.85,87,96,18.07,RU,2022-03-08 05:57:42
565,Kalmunai,7.4167,81.8167,84.0,65,74,12.35,LK,2022-03-08 05:57:42
